{
	"LocationInfo": [
			  {
			    "Address": "9th Ave & 15th St",
			    "Id": 14970,
			    "Latitude": "32.47477",
			    "Longitude": "-84.98204",
			    "Order": 1
			  },
			  {
			    "Address": "10th Ave & 14th St",
			    "Id": 14971,
			    "Latitude": "32.47251",
			    "Longitude": "-84.97981",
			    "Order": 2
			  },
			  {
			    "Address": "10th Ave & 12th St",
			    "Id": 14972,
			    "Latitude": "32.46888",
			    "Longitude": "-84.97964",
			    "Order": 3
			  },
                          {
                            "Address": "10th Ave & 11th St",
                            "Id": 14973,
                            "Latitude": "32.46657",
                            "Longitude": "-84.97983",
                            "Order": 4
                          },
                          {
                            "Address": "Martin Luther King Jr Blvd & Adair Ave",
                            "Id": 14974,
                            "Latitude": "32.46397",
                            "Longitude": "-84.97834",
                            "Order1": 5
                          },
                          {
                            "Address": "Martin Luther King Jr Blvd & Magnolia Ave",
                            "Id": 14975,
                            "Latitude": "32.46055",
                            "Longitude": "-84.9736",
                            "Order": 6
                          },
                          {
                            "Address": "Martin Luther King Jr Blvd & Battle St",
                            "Id": 14976,
                            "Latitude": "32.45867",
                            "Longitude": "-84.9716",
                            "Order": 7
                          },
                          {
                            "Address": "Martin Luther King Jr Blvd & Murray St",
                            "Id": 14977,
                            "Latitude": "32.45759",
                            "Longitude": "-84.9701",
                            "Order": 8
                          },
                          {
                            "Address": " Martin Luther King Jr Blvd",
                            "Id": 14978,
                            "Latitude": "32.4558",
                            "Longitude": "-84.9675",
                            "Order": 9
                          },
                          {
                            "Address": "Martin Luther King Jr Blvd & Havenbrook Ct",
                            "Id": 14979,
                            "Latitude": "32.45519",
                            "Longitude": "-84.96336",
                            "Order": 10
                          },
                          {
                            "Address": " Lawyers Ln & 7th St",
                            "Id": 14980,
                            "Latitude": "32.45843",
                            "Longitude": "-84.95429",
                            "Order": 11
                          },
                          {
                            "Address": " Lawyers Ln & 8th St",
                            "Id": 14981,
                            "Latitude": "32.46095",
                            "Longitude": "-84.95441",
                            "Order": 12
                          },
                          {
                            "Address": "Lawyers Ln & 9th St",
                            "Id": 14982,
                            "Latitude": "32.46249",
                            "Longitude": "-84.95374",
                            "Order": 13
                          },
                          {
                            "Address": "Lawyers Ln & Colorado St",
                            "Id": 14983,
                            "Latitude": "32.46421",
                            "Longitude": "-84.95371",
                            "Order": 14
                          },
                          {
                            "Address": "Lawyers Ln & Bell St",
                            "Id": 14984,
                            "Latitude": "32.46626",
                            "Longitude": "-84.95371",
                            "Order": 15
                          },
                          {
                            "Address": "Lawyers Ln & Gould St",
                            "Id": 14985,
                            "Latitude": "32.46847",
                            "Longitude": "-84.95368",
                            "Order": 16
                          },
                          {
                            "Address": "Lawyers Ln & Wynnton Rd",
                            "Id": 14986,
                            "Latitude": "32.47096",
                            "Longitude": "-84.95514",
                            "Order": 17
                          },
                          {
                            "Address": "Wynnton Rd & Tate Dr",
                            "Id": 14987,
                            "Latitude": "32.47194",
                            "Longitude": "-84.95517",
                            "Order": 18
                          },
                          {
                            "Address": "Macon Rd & Dixon Dr",
                            "Id": 14988,
                            "Latitude": "32.47371",
                            "Longitude": "-84.95246",
                            "Order": 19
                          },
                          {
                            "Address": "Macon Rd & Wells Dr",
                            "Id": 14989,
                            "Latitude": "32.47499",
                            "Longitude": "-84.95081",
                            "Order": 20
                          },
                          {
                            "Address": "Macon Rd & Iris Dr",
                            "Id": 14990,
                            "Latitude": "32.47591",
                            "Longitude": "-84.9496",
                            "Order": 21
                          },
                          {
                            "Address": "Macon Rd & Mercury Dr",
                            "Id": 14991,
                            "Latitude": "32.47866",
                            "Longitude": "-84.94552",
                            "Order": 22
                          },
                          {
                            "Address": "Macon Rd & Cross County Hill",
                            "Id": 14992,
                            "Latitude": "32.48031",
                            "Longitude": "-84.94314",
                            "Order": 23
                          },
                          {
                            "Address": "M town Dr & Macon R",
                            "Id": 14993,
                            "Latitude": "32.48117",
                            "Longitude": "-84.94079",
                            "Order": 24
                          },
                          {
                            "Address": "M town Dr Loop",
                            "Id": 14994,
                            "Latitude": "32.47794",
                            "Longitude": "-84.94138",
                            "Order": 25
                          },
                          {
                            "Address": "Boxwood Blvd & Boxwood Pl",
                            "Id": 14995,
                            "Latitude": "32.47597",
                            "Longitude": "-84.94125",
                            "Order": 26
                          },
                          {
                            "Address": "Boxwood Blvd & Green Forest Dr",
                            "Id": 14996,
                            "Latitude": "32.47384",
                            "Longitude": "-84.9395",
                            "Order": 27
                          },
                          {
                            "Address": "Boxwood Blvd & Dunhill D",
                            "Id": 14997,
                            "Latitude": "32.47242",
                            "Longitude": "-84.93958",
                            "Order": 28
                          },
                          {
                            "Address": "Clairmont Rd & Glenwood Rd",
                            "Id": 14998,
                            "Latitude": "32.47002",
                            "Longitude": "-84.94045",
                            "Order": 29
                          },
                          {
                            "Address": "Clairmont Rd & Melrose D",
                            "Id": 14999,
                            "Latitude": "32.47109",
                            "Longitude": "-84.94275",
                            "Order": 30
                          },
                          {
                            "Address": "Melrose Dr & Dunbar Ave",
                            "Id": 15000,
                            "Latitude": "32.47009",
                            "Longitude": "-84.94467",
                            "Order": 31
                          },
                          {
                            "Address": "Melrose Dr & Rigdon Rd",
                            "Id": 15001,
                            "Latitude": "32.46943",
                            "Longitude": "-84.94653",
                            "Order": 32
                          },
                          {
                            "Address": "Rigdon Rd & Wynnton Ln",
                            "Id": 15002,
                            "Latitude": "32.46731",
                            "Longitude": "-84.94721",
                            "Order": 33
                          },
                          {
                            "Address": "Illges Rd & Morehouse St",
                            "Id": 15003,
                            "Latitude": "32.46589",
                            "Longitude": "-84.94678",
                            "Order": 34
                          },
                          {
                            "Address": "Illges Rd & Carver St",
                            "Id": 15004,
                            "Latitude": "32.46466",
                            "Longitude": "-84.94501",
                            "Order": 35
                          },
                          {
                            "Address": "Illges Rd & 9th St",
                            "Id": 15005,
                            "Latitude": "32.46295",
                            "Longitude": "-84.94433",
                            "Order": 36
                          },
                          {
                            "Address": "8th St & 32nd Ave",
                            "Id": 15006,
                            "Latitude": "32.46166",
                            "Longitude": "-84.94279",
                            "Order": 37
                          },
                          {
                            "Address": "8th St & 34th Ave",
                            "Id": 15007,
                            "Latitude": "32.46307",
                            "Longitude": "-84.9414",
                            "Order": 38
                          },
                          {
                            "Address": "Decatur St & Fleming Ave",
                            "Id": 15008,
                            "Latitude": "32.46349",
                            "Longitude": "-84.94011",
                            "Order": 39
			  }
			]
}